[{"capitalName": "King Edward Point", "country": "South Georgia and South Sandwich Islands", "latitude": -54.283333, "longitude": -36.5}, {"capitalName": "Port-aux-Fran\u00e7ais", "country": "French Southern and Antarctic Lands", "latitude": -49.35, "longitude": 70.216667}, {"capitalName": "Jerusalem", "country": "Palestine", "latitude": 31.766666666666666, "longitude": 35.233333}, {"capitalName": "Mariehamn", "country": "Aland Islands", "latitude": 60.116667, "longitude": 19.9}, {"capitalName": "Yaren", "country": "Nauru", "latitude": -0.5477, "longitude": 166.920867}, {"capitalName": "Marigot", "country": "Saint Martin", "latitude": 18.0731, "longitude": -63.0822}, {"capitalName": "Atafu", "country": "Tokelau", "latitude": -9.166667, "longitude": -171.833333}, {"capitalName": "El-Aai\u00fan", "country": "Western Sahara", "latitude": 27.153611, "longitude": -13.203333}, {"capitalName": "Kabul", "country": "Afghanistan", "latitude": 34.516666666666666, "longitude": 69.183333}, {"capitalName": "Tirana", "country": "Albania", "latitude": 41.31666666666667, "longitude": 19.816667}, {"capitalName": "Algiers", "country": "Algeria", "latitude": 36.75, "longitude": 3.05}, {"capitalName": "Pago Pago", "country": "American Samoa", "latitude": -14.266666666666667, "longitude": -170.7}, {"capitalName": "Andorra la Vella", "country": "Andorra", "latitude": 42.5, "longitude": 1.516667}, {"capitalName": "Luanda", "country": "Angola", "latitude": -8.833333333333334, "longitude": 13.216667}, {"capitalName": "The Valley", "country": "Anguilla", "latitude": 18.216666666666665, "longitude": -63.05}, {"capitalName": "Saint John's", "country": "Antigua and Barbuda", "latitude": 17.116666666666667, "longitude": -61.85}, {"capitalName": "Buenos Aires", "country": "Argentina", "latitude": -34.583333333333336, "longitude": -58.666667}, {"capitalName": "Yerevan", "country": "Armenia", "latitude": 40.16666666666666, "longitude": 44.5}, {"capitalName": "Oranjestad", "country": "Aruba", "latitude": 12.516666666666667, "longitude": -70.033333}, {"capitalName": "Canberra", "country": "Australia", "latitude": -35.266666666666666, "longitude": 149.133333}, {"capitalName": "Vienna", "country": "Austria", "latitude": 48.2, "longitude": 16.366667}, {"capitalName": "Baku", "country": "Azerbaijan", "latitude": 40.38333333333333, "longitude": 49.866667}, {"capitalName": "Nassau", "country": "Bahamas", "latitude": 25.08333333333333, "longitude": -77.35}, {"capitalName": "Manama", "country": "Bahrain", "latitude": 26.23333333333333, "longitude": 50.566667}, {"capitalName": "Dhaka", "country": "Bangladesh", "latitude": 23.716666666666665, "longitude": 90.4}, {"capitalName": "Bridgetown", "country": "Barbados", "latitude": 13.1, "longitude": -59.616667}, {"capitalName": "Minsk", "country": "Belarus", "latitude": 53.9, "longitude": 27.566667}, {"capitalName": "Brussels", "country": "Belgium", "latitude": 50.833333333333336, "longitude": 4.333333}, {"capitalName": "Belmopan", "country": "Belize", "latitude": 17.25, "longitude": -88.766667}, {"capitalName": "Porto-Novo", "country": "Benin", "latitude": 6.483333333333333, "longitude": 2.616667}, {"capitalName": "Hamilton", "country": "Bermuda", "latitude": 32.28333333333333, "longitude": -64.783333}, {"capitalName": "Thimphu", "country": "Bhutan", "latitude": 27.466666666666665, "longitude": 89.633333}, {"capitalName": "La Paz", "country": "Bolivia", "latitude": -16.5, "longitude": -68.15}, {"capitalName": "Sarajevo", "country": "Bosnia and Herzegovina", "latitude": 43.86666666666667, "longitude": 18.416667}, {"capitalName": "Gaborone", "country": "Botswana", "latitude": -24.633333333333333, "longitude": 25.9}, {"capitalName": "Brasilia", "country": "Brazil", "latitude": -15.783333333333331, "longitude": -47.916667}, {"capitalName": "Road Town", "country": "British Virgin Islands", "latitude": 18.416666666666668, "longitude": -64.616667}, {"capitalName": "Bandar Seri Begawan", "country": "Brunei Darussalam", "latitude": 4.883333333333333, "longitude": 114.933333}, {"capitalName": "Sofia", "country": "Bulgaria", "latitude": 42.68333333333333, "longitude": 23.316667}, {"capitalName": "Ouagadougou", "country": "Burkina Faso", "latitude": 12.366666666666667, "longitude": -1.516667}, {"capitalName": "Rangoon", "country": "Myanmar", "latitude": 16.8, "longitude": 96.15}, {"capitalName": "Bujumbura", "country": "Burundi", "latitude": -3.3666666666666667, "longitude": 29.35}, {"capitalName": "Phnom Penh", "country": "Cambodia", "latitude": 11.55, "longitude": 104.916667}, {"capitalName": "Yaounde", "country": "Cameroon", "latitude": 3.8666666666666663, "longitude": 11.516667}, {"capitalName": "Ottawa", "country": "Canada", "latitude": 45.41666666666666, "longitude": -75.7}, {"capitalName": "Praia", "country": "Cape Verde", "latitude": 14.916666666666666, "longitude": -23.516667}, {"capitalName": "George Town", "country": "Cayman Islands", "latitude": 19.3, "longitude": -81.383333}, {"capitalName": "Bangui", "country": "Central African Republic", "latitude": 4.366666666666666, "longitude": 18.583333}, {"capitalName": "N'Djamena", "country": "Chad", "latitude": 12.1, "longitude": 15.033333}, {"capitalName": "Santiago", "country": "Chile", "latitude": -33.45, "longitude": -70.666667}, {"capitalName": "Beijing", "country": "China", "latitude": 39.91666666666666, "longitude": 116.383333}, {"capitalName": "The Settlement", "country": "Christmas Island", "latitude": -10.416666666666666, "longitude": 105.716667}, {"capitalName": "West Island", "country": "Cocos Islands", "latitude": -12.166666666666666, "longitude": 96.833333}, {"capitalName": "Bogota", "country": "Colombia", "latitude": 4.6, "longitude": -74.083333}, {"capitalName": "Moroni", "country": "Comoros", "latitude": -11.7, "longitude": 43.233333}, {"capitalName": "Kinshasa", "country": "Democratic Republic of the Congo", "latitude": -4.316666666666666, "longitude": 15.3}, {"capitalName": "Brazzaville", "country": "Republic of Congo", "latitude": -4.25, "longitude": 15.283333}, {"capitalName": "Avarua", "country": "Cook Islands", "latitude": -21.2, "longitude": -159.766667}, {"capitalName": "San Jose", "country": "Costa Rica", "latitude": 9.933333333333334, "longitude": -84.083333}, {"capitalName": "Yamoussoukro", "country": "Cote d'Ivoire", "latitude": 6.816666666666666, "longitude": -5.266667}, {"capitalName": "Zagreb", "country": "Croatia", "latitude": 45.8, "longitude": 16.0}, {"capitalName": "Havana", "country": "Cuba", "latitude": 23.116666666666667, "longitude": -82.35}, {"capitalName": "Willemstad", "country": "Cura\u00e7ao", "latitude": 12.1, "longitude": -68.916667}, {"capitalName": "Nicosia", "country": "Cyprus", "latitude": 35.166666666666664, "longitude": 33.366667}, {"capitalName": "Prague", "country": "Czech Republic", "latitude": 50.083333333333336, "longitude": 14.466667}, {"capitalName": "Copenhagen", "country": "Denmark", "latitude": 55.66666666666666, "longitude": 12.583333}, {"capitalName": "Djibouti", "country": "Djibouti", "latitude": 11.583333333333334, "longitude": 43.15}, {"capitalName": "Roseau", "country": "Dominica", "latitude": 15.3, "longitude": -61.4}, {"capitalName": "Santo Domingo", "country": "Dominican Republic", "latitude": 18.466666666666665, "longitude": -69.9}, {"capitalName": "Quito", "country": "Ecuador", "latitude": -0.2166666666666666, "longitude": -78.5}, {"capitalName": "Cairo", "country": "Egypt", "latitude": 30.05, "longitude": 31.25}, {"capitalName": "San Salvador", "country": "El Salvador", "latitude": 13.7, "longitude": -89.2}, {"capitalName": "Malabo", "country": "Equatorial Guinea", "latitude": 3.75, "longitude": 8.783333}, {"capitalName": "Asmara", "country": "Eritrea", "latitude": 15.333333333333334, "longitude": 38.933333}, {"capitalName": "Tallinn", "country": "Estonia", "latitude": 59.43333333333333, "longitude": 24.716667}, {"capitalName": "Addis Ababa", "country": "Ethiopia", "latitude": 9.033333333333331, "longitude": 38.7}, {"capitalName": "Stanley", "country": "Falkland Islands", "latitude": -51.7, "longitude": -57.85}, {"capitalName": "Torshavn", "country": "Faroe Islands", "latitude": 62.0, "longitude": -6.766667}, {"capitalName": "Suva", "country": "Fiji", "latitude": -18.133333333333333, "longitude": 178.416667}, {"capitalName": "Helsinki", "country": "Finland", "latitude": 60.16666666666666, "longitude": 24.933333}, {"capitalName": "Paris", "country": "France", "latitude": 48.86666666666667, "longitude": 2.333333}, {"capitalName": "Papeete", "country": "French Polynesia", "latitude": -17.533333333333335, "longitude": -149.566667}, {"capitalName": "Libreville", "country": "Gabon", "latitude": 0.3833333333333333, "longitude": 9.45}, {"capitalName": "Banjul", "country": "The Gambia", "latitude": 13.45, "longitude": -16.566667}, {"capitalName": "Tbilisi", "country": "Georgia", "latitude": 41.68333333333333, "longitude": 44.833333}, {"capitalName": "Berlin", "country": "Germany", "latitude": 52.516666666666666, "longitude": 13.4}, {"capitalName": "Accra", "country": "Ghana", "latitude": 5.55, "longitude": -0.216667}, {"capitalName": "Gibraltar", "country": "Gibraltar", "latitude": 36.13333333333333, "longitude": -5.35}, {"capitalName": "Athens", "country": "Greece", "latitude": 37.98333333333333, "longitude": 23.733333}, {"capitalName": "Nuuk", "country": "Greenland", "latitude": 64.18333333333334, "longitude": -51.75}, {"capitalName": "Saint George's", "country": "Grenada", "latitude": 12.05, "longitude": -61.75}, {"capitalName": "Hagatna", "country": "Guam", "latitude": 13.466666666666669, "longitude": 144.733333}, {"capitalName": "Guatemala City", "country": "Guatemala", "latitude": 14.616666666666667, "longitude": -90.516667}, {"capitalName": "Saint Peter Port", "country": "Guernsey", "latitude": 49.45, "longitude": -2.533333}, {"capitalName": "Conakry", "country": "Guinea", "latitude": 9.5, "longitude": -13.7}, {"capitalName": "Bissau", "country": "Guinea-Bissau", "latitude": 11.85, "longitude": -15.583333}, {"capitalName": "Georgetown", "country": "Guyana", "latitude": 6.8, "longitude": -58.15}, {"capitalName": "Port-au-Prince", "country": "Haiti", "latitude": 18.53333333333333, "longitude": -72.333333}, {"capitalName": "Vatican City", "country": "Vatican City", "latitude": 41.9, "longitude": 12.45}, {"capitalName": "Tegucigalpa", "country": "Honduras", "latitude": 14.1, "longitude": -87.216667}, {"capitalName": "Budapest", "country": "Hungary", "latitude": 47.5, "longitude": 19.083333}, {"capitalName": "Reykjavik", "country": "Iceland", "latitude": 64.15, "longitude": -21.95}, {"capitalName": "New Delhi", "country": "India", "latitude": 28.6, "longitude": 77.2}, {"capitalName": "Jakarta", "country": "Indonesia", "latitude": -6.166666666666667, "longitude": 106.816667}, {"capitalName": "Tehran", "country": "Iran", "latitude": 35.7, "longitude": 51.416667}, {"capitalName": "Baghdad", "country": "Iraq", "latitude": 33.333333333333336, "longitude": 44.4}, {"capitalName": "Dublin", "country": "Ireland", "latitude": 53.31666666666667, "longitude": -6.233333}, {"capitalName": "Douglas", "country": "Isle of Man", "latitude": 54.15, "longitude": -4.483333}, {"capitalName": "Jerusalem", "country": "Israel", "latitude": 31.766666666666666, "longitude": 35.233333}, {"capitalName": "Rome", "country": "Italy", "latitude": 41.9, "longitude": 12.483333}, {"capitalName": "Kingston", "country": "Jamaica", "latitude": 18.0, "longitude": -76.8}, {"capitalName": "Tokyo", "country": "Japan", "latitude": 35.68333333333333, "longitude": 139.75}, {"capitalName": "Saint Helier", "country": "Jersey", "latitude": 49.18333333333333, "longitude": -2.1}, {"capitalName": "Amman", "country": "Jordan", "latitude": 31.95, "longitude": 35.933333}, {"capitalName": "Astana", "country": "Kazakhstan", "latitude": 51.16666666666666, "longitude": 71.416667}, {"capitalName": "Nairobi", "country": "Kenya", "latitude": -1.2833333333333332, "longitude": 36.816667}, {"capitalName": "Tarawa", "country": "Kiribati", "latitude": -0.8833333333333333, "longitude": 169.533333}, {"capitalName": "Pyongyang", "country": "North Korea", "latitude": 39.016666666666666, "longitude": 125.75}, {"capitalName": "Seoul", "country": "South Korea", "latitude": 37.55, "longitude": 126.983333}, {"capitalName": "Pristina", "country": "Kosovo", "latitude": 42.66666666666666, "longitude": 21.166667}, {"capitalName": "Kuwait City", "country": "Kuwait", "latitude": 29.366666666666667, "longitude": 47.966667}, {"capitalName": "Bishkek", "country": "Kyrgyzstan", "latitude": 42.86666666666667, "longitude": 74.6}, {"capitalName": "Vientiane", "country": "Laos", "latitude": 17.966666666666665, "longitude": 102.6}, {"capitalName": "Riga", "country": "Latvia", "latitude": 56.95, "longitude": 24.1}, {"capitalName": "Beirut", "country": "Lebanon", "latitude": 33.86666666666667, "longitude": 35.5}, {"capitalName": "Maseru", "country": "Lesotho", "latitude": -29.316666666666663, "longitude": 27.483333}, {"capitalName": "Monrovia", "country": "Liberia", "latitude": 6.3, "longitude": -10.8}, {"capitalName": "Tripoli", "country": "Libya", "latitude": 32.88333333333333, "longitude": 13.166667}, {"capitalName": "Vaduz", "country": "Liechtenstein", "latitude": 47.13333333333333, "longitude": 9.516667}, {"capitalName": "Vilnius", "country": "Lithuania", "latitude": 54.68333333333333, "longitude": 25.316667}, {"capitalName": "Luxembourg", "country": "Luxembourg", "latitude": 49.6, "longitude": 6.116667}, {"capitalName": "Skopje", "country": "Macedonia", "latitude": 42.0, "longitude": 21.433333}, {"capitalName": "Antananarivo", "country": "Madagascar", "latitude": -18.916666666666668, "longitude": 47.516667}, {"capitalName": "Lilongwe", "country": "Malawi", "latitude": -13.966666666666669, "longitude": 33.783333}, {"capitalName": "Kuala Lumpur", "country": "Malaysia", "latitude": 3.1666666666666665, "longitude": 101.7}, {"capitalName": "Male", "country": "Maldives", "latitude": 4.166666666666667, "longitude": 73.5}, {"capitalName": "Bamako", "country": "Mali", "latitude": 12.65, "longitude": -8.0}, {"capitalName": "Valletta", "country": "Malta", "latitude": 35.88333333333333, "longitude": 14.5}, {"capitalName": "Majuro", "country": "Marshall Islands", "latitude": 7.1, "longitude": 171.383333}, {"capitalName": "Nouakchott", "country": "Mauritania", "latitude": 18.066666666666663, "longitude": -15.966667}, {"capitalName": "Port Louis", "country": "Mauritius", "latitude": -20.15, "longitude": 57.483333}, {"capitalName": "Mexico City", "country": "Mexico", "latitude": 19.433333333333334, "longitude": -99.133333}, {"capitalName": "Palikir", "country": "Federated States of Micronesia", "latitude": 6.916666666666667, "longitude": 158.15}, {"capitalName": "Chisinau", "country": "Moldova", "latitude": 47.0, "longitude": 28.85}, {"capitalName": "Monaco", "country": "Monaco", "latitude": 43.73333333333333, "longitude": 7.416667}, {"capitalName": "Ulaanbaatar", "country": "Mongolia", "latitude": 47.91666666666666, "longitude": 106.916667}, {"capitalName": "Podgorica", "country": "Montenegro", "latitude": 42.43333333333333, "longitude": 19.266667}, {"capitalName": "Plymouth", "country": "Montserrat", "latitude": 16.7, "longitude": -62.216667}, {"capitalName": "Rabat", "country": "Morocco", "latitude": 34.016666666666666, "longitude": -6.816667}, {"capitalName": "Maputo", "country": "Mozambique", "latitude": -25.95, "longitude": 32.583333}, {"capitalName": "Kathmandu", "country": "Nepal", "latitude": 27.716666666666665, "longitude": 85.316667}, {"capitalName": "Amsterdam", "country": "Netherlands", "latitude": 52.35, "longitude": 4.916667}, {"capitalName": "Noumea", "country": "New Caledonia", "latitude": -22.266666666666666, "longitude": 166.45}, {"capitalName": "Wellington", "country": "New Zealand", "latitude": -41.3, "longitude": 174.783333}, {"capitalName": "Managua", "country": "Nicaragua", "latitude": 12.133333333333333, "longitude": -86.25}, {"capitalName": "Niamey", "country": "Niger", "latitude": 13.516666666666667, "longitude": 2.116667}, {"capitalName": "Abuja", "country": "Nigeria", "latitude": 9.083333333333334, "longitude": 7.533333}, {"capitalName": "Alofi", "country": "Niue", "latitude": -19.016666666666666, "longitude": -169.916667}, {"capitalName": "Kingston", "country": "Norfolk Island", "latitude": -29.05, "longitude": 167.966667}, {"capitalName": "Saipan", "country": "Northern Mariana Islands", "latitude": 15.2, "longitude": 145.75}, {"capitalName": "Oslo", "country": "Norway", "latitude": 59.91666666666666, "longitude": 10.75}, {"capitalName": "Muscat", "country": "Oman", "latitude": 23.616666666666667, "longitude": 58.583333}, {"capitalName": "Islamabad", "country": "Pakistan", "latitude": 33.68333333333333, "longitude": 73.05}, {"capitalName": "Melekeok", "country": "Palau", "latitude": 7.483333333333333, "longitude": 134.633333}, {"capitalName": "Panama City", "country": "Panama", "latitude": 8.966666666666667, "longitude": -79.533333}, {"capitalName": "Port Moresby", "country": "Papua New Guinea", "latitude": -9.45, "longitude": 147.183333}, {"capitalName": "Asuncion", "country": "Paraguay", "latitude": -25.266666666666666, "longitude": -57.666667}, {"capitalName": "Lima", "country": "Peru", "latitude": -12.05, "longitude": -77.05}, {"capitalName": "Manila", "country": "Philippines", "latitude": 14.6, "longitude": 120.966667}, {"capitalName": "Adamstown", "country": "Pitcairn Islands", "latitude": -25.066666666666663, "longitude": -130.083333}, {"capitalName": "Warsaw", "country": "Poland", "latitude": 52.25, "longitude": 21.0}, {"capitalName": "Lisbon", "country": "Portugal", "latitude": 38.71666666666667, "longitude": -9.133333}, {"capitalName": "San Juan", "country": "Puerto Rico", "latitude": 18.466666666666665, "longitude": -66.116667}, {"capitalName": "Doha", "country": "Qatar", "latitude": 25.28333333333333, "longitude": 51.533333}, {"capitalName": "Bucharest", "country": "Romania", "latitude": 44.43333333333333, "longitude": 26.1}, {"capitalName": "Moscow", "country": "Russia", "latitude": 55.75, "longitude": 37.6}, {"capitalName": "Kigali", "country": "Rwanda", "latitude": -1.95, "longitude": 30.05}, {"capitalName": "Gustavia", "country": "Saint Barthelemy", "latitude": 17.883333333333333, "longitude": -62.85}, {"capitalName": "Jamestown", "country": "Saint Helena", "latitude": -15.933333333333334, "longitude": -5.716667}, {"capitalName": "Basseterre", "country": "Saint Kitts and Nevis", "latitude": 17.3, "longitude": -62.716667}, {"capitalName": "Castries", "country": "Saint Lucia", "latitude": 14.0, "longitude": -61.0}, {"capitalName": "Saint-Pierre", "country": "Saint Pierre and Miquelon", "latitude": 46.766666666666666, "longitude": -56.183333}, {"capitalName": "Kingstown", "country": "Saint Vincent and the Grenadines", "latitude": 13.133333333333333, "longitude": -61.216667}, {"capitalName": "Apia", "country": "Samoa", "latitude": -13.816666666666666, "longitude": -171.766667}, {"capitalName": "San Marino", "country": "San Marino", "latitude": 43.93333333333333, "longitude": 12.416667}, {"capitalName": "Sao Tome", "country": "Sao Tome and Principe", "latitude": 0.3333333333333333, "longitude": 6.733333}, {"capitalName": "Riyadh", "country": "Saudi Arabia", "latitude": 24.65, "longitude": 46.7}, {"capitalName": "Dakar", "country": "Senegal", "latitude": 14.733333333333333, "longitude": -17.633333}, {"capitalName": "Belgrade", "country": "Serbia", "latitude": 44.833333333333336, "longitude": 20.5}, {"capitalName": "Victoria", "country": "Seychelles", "latitude": -4.616666666666667, "longitude": 55.45}, {"capitalName": "Freetown", "country": "Sierra Leone", "latitude": 8.483333333333333, "longitude": -13.233333}, {"capitalName": "Singapore", "country": "Singapore", "latitude": 1.2833333333333332, "longitude": 103.85}, {"capitalName": "Philipsburg", "country": "Sint Maarten", "latitude": 18.016666666666666, "longitude": -63.033333}, {"capitalName": "Bratislava", "country": "Slovakia", "latitude": 48.15, "longitude": 17.116667}, {"capitalName": "Ljubljana", "country": "Slovenia", "latitude": 46.05, "longitude": 14.516667}, {"capitalName": "Honiara", "country": "Solomon Islands", "latitude": -9.433333333333334, "longitude": 159.95}, {"capitalName": "Mogadishu", "country": "Somalia", "latitude": 2.066666666666667, "longitude": 45.333333}, {"capitalName": "Pretoria", "country": "South Africa", "latitude": -25.7, "longitude": 28.216667}, {"capitalName": "Juba", "country": "South Sudan", "latitude": 4.85, "longitude": 31.616667}, {"capitalName": "Madrid", "country": "Spain", "latitude": 40.4, "longitude": -3.683333}, {"capitalName": "Colombo", "country": "Sri Lanka", "latitude": 6.916666666666667, "longitude": 79.833333}, {"capitalName": "Khartoum", "country": "Sudan", "latitude": 15.6, "longitude": 32.533333}, {"capitalName": "Paramaribo", "country": "Suriname", "latitude": 5.833333333333333, "longitude": -55.166667}, {"capitalName": "Longyearbyen", "country": "Svalbard", "latitude": 78.21666666666667, "longitude": 15.633333}, {"capitalName": "Mbabane", "country": "Swaziland", "latitude": -26.316666666666663, "longitude": 31.133333}, {"capitalName": "Stockholm", "country": "Sweden", "latitude": 59.333333333333336, "longitude": 18.05}, {"capitalName": "Bern", "country": "Switzerland", "latitude": 46.91666666666666, "longitude": 7.466667}, {"capitalName": "Damascus", "country": "Syria", "latitude": 33.5, "longitude": 36.3}, {"capitalName": "Taipei", "country": "Taiwan", "latitude": 25.03333333333333, "longitude": 121.516667}, {"capitalName": "Dushanbe", "country": "Tajikistan", "latitude": 38.55, "longitude": 68.766667}, {"capitalName": "Dar es Salaam", "country": "Tanzania", "latitude": -6.8, "longitude": 39.283333}, {"capitalName": "Bangkok", "country": "Thailand", "latitude": 13.75, "longitude": 100.516667}, {"capitalName": "Dili", "country": "Timor-Leste", "latitude": -8.583333333333334, "longitude": 125.6}, {"capitalName": "Lome", "country": "Togo", "latitude": 6.116666666666666, "longitude": 1.216667}, {"capitalName": "Nuku'alofa", "country": "Tonga", "latitude": -21.133333333333333, "longitude": -175.2}, {"capitalName": "Port of Spain", "country": "Trinidad and Tobago", "latitude": 10.65, "longitude": -61.516667}, {"capitalName": "Tunis", "country": "Tunisia", "latitude": 36.8, "longitude": 10.183333}, {"capitalName": "Ankara", "country": "Turkey", "latitude": 39.93333333333333, "longitude": 32.866667}, {"capitalName": "Ashgabat", "country": "Turkmenistan", "latitude": 37.95, "longitude": 58.383333}, {"capitalName": "Grand Turk", "country": "Turks and Caicos Islands", "latitude": 21.466666666666665, "longitude": -71.133333}, {"capitalName": "Funafuti", "country": "Tuvalu", "latitude": -8.516666666666667, "longitude": 179.216667}, {"capitalName": "Kampala", "country": "Uganda", "latitude": 0.3166666666666666, "longitude": 32.55}, {"capitalName": "Kyiv", "country": "Ukraine", "latitude": 50.43333333333333, "longitude": 30.516667}, {"capitalName": "Abu Dhabi", "country": "United Arab Emirates", "latitude": 24.466666666666665, "longitude": 54.366667}, {"capitalName": "London", "country": "United Kingdom", "latitude": 51.5, "longitude": -0.083333}, {"capitalName": "Washington", "country": "United States", "latitude": 38.883333, "longitude": -77.0}, {"capitalName": "Montevideo", "country": "Uruguay", "latitude": -34.85, "longitude": -56.166667}, {"capitalName": "Tashkent", "country": "Uzbekistan", "latitude": 41.31666666666667, "longitude": 69.25}, {"capitalName": "Port-Vila", "country": "Vanuatu", "latitude": -17.733333333333334, "longitude": 168.316667}, {"capitalName": "Caracas", "country": "Venezuela", "latitude": 10.483333333333333, "longitude": -66.866667}, {"capitalName": "Hanoi", "country": "Vietnam", "latitude": 21.03333333333333, "longitude": 105.85}, {"capitalName": "Charlotte Amalie", "country": "US Virgin Islands", "latitude": 18.35, "longitude": -64.933333}, {"capitalName": "Mata-Utu", "country": "Wallis and Futuna", "latitude": -13.95, "longitude": -171.933333}, {"capitalName": "Sanaa", "country": "Yemen", "latitude": 15.35, "longitude": 44.2}, {"capitalName": "Lusaka", "country": "Zambia", "latitude": -15.416666666666666, "longitude": 28.283333}, {"capitalName": "Harare", "country": "Zimbabwe", "latitude": -17.816666666666666, "longitude": 31.033333}, {"capitalName": "Washington", "country": "US Minor Outlying Islands", "latitude": 38.883333, "longitude": -77.0}, {"capitalName": "Diego Garcia", "country": "British Indian Ocean Territory", "latitude": -7.3, "longitude": 72.4}]